     2.20           OBSERVATION DATA    GPS                 RINEX VERSION / TYPE
GRACE B                                                     MARKER NAME
GRACE B             NASA                                    OBSERVER / AGENCY
RECNUM              RECTYPE             RECVERS             REC # / TYPE / VERS
ANTNUM              ANTTYPE                                 ANT # / TYPE
        0.0000        0.0000        0.0000                  APPROX POSITION XYZ
        0.0000        0.0000        0.0000                  ANTENNA: DELTA H/E/N
     1     1     0                                          WAVELENGTH FACT L1/2
     9    L1    L2    C1    P1    P2    LA    SA    S1    S2# / TYPES OF OBSERV
    10                                                      INTERVAL
  2003    09    14    00    00   00.000000      GPS         TIME OF FIRST OBS
SNR is mapped to signal strength [0,1,2-9]                  COMMENT
 SNR: >500 >100  >50  >10   >5   >3  >1  >0  bad  n/a       COMMENT
 sig:    9    8    7    6    5    4   3   2    1    0       COMMENT
 Loss of Lock Indicator is set for all phase observations   COMMENT
 in case a phase break/cycle slip is detected.              COMMENT
 Loss of Lock Indicator is also set at acquisition of a PRN COMMENT
 Undetected cycle slips may remain in this file.            COMMENT
                                                            END OF HEADER
 03 09 14 00 00 00.0000000  0  7 01 04 07 13 20 25 30
 108857334.77548  84823919.90748  20714861.75749  20714862.18748  20714867.59148
 108857332.27649       633.00049       292.00048       233.00048
 118674768.74247  92473865.84447  22583056.98648  22583057.89547  22583062.93847
 118674763.25248       342.00048        70.00047        77.00047
 120392602.16646  93812441.01346  22909950.39048  22909950.77146  22909956.72346
 120392601.66548       249.00048        40.00046        39.00046
 121457027.28646  94641857.64546  23112502.73948  23112504.08946  23112507.83646
 121457022.81148       269.00048        34.00046        29.00046
 104715261.84048  81596326.44849  19926651.75849  19926652.03148  19926656.44749
 104715260.34649       703.00049       405.00048       672.00049
 113850644.63648  88714805.15348  21665056.80048  21665057.44848  21665061.91948
 113850641.14448       407.00048       114.00048       116.00048
 129951878.98045 101261225.40543  24729019.99148  24729021.02845  24729025.57543
 129951875.46948       131.00048         8.00045         3.00043
 03 09 14 00 00 10.0000000  0  7 01 04 07 13 20 25 30
 108602306.43148  84625196.51648  20666331.48949  20666331.92148  20666337.27048
 108602303.93449       643.00049       304.00048       243.00048
 118846274.36247  92607506.54647  22615693.35848  22615694.20947  22615699.27447
 118846268.86648       337.00048        68.00047        74.00047
 120345753.40846  93775935.47546  22901035.57548  22901035.52946  22901041.46546
 120345752.92248       248.00048        40.00046        40.00046
 121134504.19546  94390540.96046  23051128.60748  23051129.56646  23051133.83846
 121134499.69848       277.00048        44.00046        37.00046
 104688736.44348  81575657.28449  19921604.17749  19921604.38048  19921608.85249
 104688734.94849       702.00049       405.00048       678.00049
 113962544.75248  88802000.01648  21686350.71948  21686351.31248  21686355.92548
 113962541.25848       404.00048       111.00048       113.00048
 130326373.48645 101553039.18843  24800284.16648  24800285.21945  24800289.11543
 130326369.95348       126.00048         7.00045         2.00043
 03 09 14 00 00 20.0000000  0  7 01 04 07 13 20 25 30
 108352494.12048  84430537.56748  20618793.72349  20618794.18748  20618799.62448
 108352491.62249       652.00049       311.00048       255.00048
 119020099.23647  92742954.46247  22648771.21048  22648772.16747  22648777.04147
 119020093.73648       333.00048        65.00047        74.00047
 120300636.47246  93740779.39946  22892450.06548  22892450.29146  22892456.02546
 120300635.98348       249.00048        40.00046        40.00046
 120814719.03746  94141357.74446  22990275.55948  22990276.46146  22990280.51746
 120814714.53648       286.00048        48.00046        39.00046
 104667977.45348  81559481.42849  19917653.89049  19917654.12048  19917658.55749
 104667975.95949       701.00049       403.00048       678.00049
 114079800.58048  88893368.16048  21708663.81748  21708664.51448  21708668.97448
 114079797.08648       400.00048       111.00048       110.00048
 130702074.74945 101845793.37543  24871778.09548  24871778.71045  24871783.04243
 130702071.28048       121.00048         7.00045         2.00043
 03 09 14 00 00 30.0000000  0  6 01 04 07 13 20 25
 108107973.88048  84240002.31048  20572263.10049  20572263.54548  20572268.94048
 108107971.38349       660.00049       319.00048       264.00048
 119196220.92447  92880192.11347  22682286.13348  22682287.06547  22682291.92547
 119196215.42648       330.00048        65.00047        70.00047
 120257256.95246  93706977.15346  22884195.28248  22884195.25046  22884201.49246
 120257256.46448       249.00048        37.00046        39.00046
 120497746.82647  93894366.43846  22929957.60848  22929958.62447  22929962.78946
 120497742.32648       295.00048        51.00047        42.00046
 104652989.19548  81547802.24849  19914801.74949  19914801.97748  19914806.40849
 104652987.70249       699.00049       401.00048       682.00049
 114202376.67548  88988881.96748  21731989.33048  21731989.91548  21731994.45548
 114202373.18148       398.00048       106.00048       110.00048
 03 09 14 00 00 40.0000000  0  8 01 04 07 11 13 20 25 30
 107868821.02448  84053649.43448  20526753.76149  20526754.23948  20526759.69448
 107868818.52549       669.00049       327.00048       278.00048
 119374616.95247  93019201.97747  22716233.67448  22716234.70947  22716239.64947
 119374611.45848       327.00048        65.00047        67.00047
 120215620.64746  93674533.25246  22876272.17848  22876272.18346  22876278.40846
 120215620.14648       249.00048        40.00046        39.00046
 119925369.48557  93448357.64056  22821038.53048  22821039.08447  22821043.41346
 119925365.98858       289.00048        56.00047        40.00046
 120183662.76947  93649625.64946  22870189.47448  22870190.57547  22870194.78846
 120183658.27148       307.00048        56.00047        46.00046
 104643774.39648  81540621.86649  19913048.29249  19913048.45448  19913052.89849
 104643772.90349       698.00049       398.00048       685.00049
 114330236.27148  89088512.78748  21756320.16448  21756320.94148  21756325.32548
 114330232.77548       395.00048       107.00048       108.00048
 131456862.01545 102433939.09643  25015409.32348  25015409.51045  25015415.42643
 131456858.56848       112.00048         6.00045         2.00043
 03 09 14 00 00 50.0000000  0  7 01 04 07 11 13 20 25
 107635109.65948  83871536.67648  20482280.00749  20482280.42548  20482285.86348
 107635107.15949       680.00049       338.00048       291.00048
 119555264.45147  93159966.22447  22750609.77348  22750610.73147  22750615.73047
 119555258.95148       323.00048        61.00047        66.00047
 120175732.85246  93643451.83546  22868681.72848  22868681.91146  22868687.78246
 120175732.35448       251.00048        42.00046        41.00046
 119617282.73847  93208290.05346  22762411.44948  22762412.15647  22762416.13746
 119617279.23348       297.00048        57.00047        39.00046
 119872542.00247  93407193.90546  22810985.16248  22810986.08647  22810990.26246
 119872537.50248       317.00048        60.00047        45.00046
 104640333.96548  81537940.99249  19912393.57249  19912393.80648  19912398.26149
 104640332.47249       695.00049       396.00048       687.00049
 114463340.93848  89192230.67448  21781649.22048  21781649.90848  21781654.35248
 114463337.44448       391.00048       104.00048       104.00048
 03 09 14 00 01 00.0000000  0  7 01 04 07 11 13 20 25
 107406912.98248  83693721.08148  20438855.59349  20438856.10048  20438861.49648
 107406910.48349       695.00049       352.00048       300.00048
 119738140.60847  93302467.09447  22785410.11348  22785410.95247  22785416.02747
 119738135.10548       319.00048        61.00047        63.00047
 120137598.91246  93613737.06746  22861425.05748  22861425.31946  22861431.29746
 120137598.42848       251.00048        40.00046        40.00046
 119311174.31347  92969764.03246  22704161.08348  22704161.48547  22704165.61346
 119311170.81248       306.00048        63.00047        41.00046
 119564459.79747  93167129.88046  22752358.91348  22752359.97247  22752364.44146
 119564455.30048       328.00048        65.00047        49.00046
 104642667.27848  81539759.13649  19912837.54149  19912837.81648  19912842.29149
 104642665.78449       694.00049       393.00048       686.00049
 114601651.07348  89300004.76847  21807968.70548  21807969.33948  21807973.97447
 114601647.57648       385.00048       102.00048       100.00047
 03 09 14 00 01 10.0000000  0  7 01 04 07 11 13 20 25
 107184302.96848  83520258.72948  20396494.39249  20396494.80448  20396500.21148
 107184300.46849       711.00049       369.00048       309.00048
 119923222.00647  93446686.33747  22820629.76848  22820630.81447  22820635.76147
 119923216.50748       316.00048        61.00047        60.00047
 120101223.91946  93585392.88346  22854503.17348  22854503.21346  22854509.08246
 120101223.42748       253.00048        43.00046        39.00046
 119007089.61547  92732814.93646  22646295.49748  22646296.19347  22646300.04746
 119007086.11848       315.00048        66.00047        42.00046
 119259491.30047  92929492.10547  22694325.46148  22694326.49447  22694330.62947
 119259486.79748       339.00048        68.00047        54.00047
 104650771.88448  81546074.39249  19914379.86549  19914380.09348  19914384.55949
 104650770.39049       691.00049       390.00048       681.00049
 114745125.52647  89411803.01247  21835270.97748  21835271.62147  21835276.06847
 114745122.03248       380.00048        97.00047        99.00047
 03 09 14 00 01 20.0000000  0  4 01 04 07 11
 106967350.47848  83351204.83748  20355209.67349  20355210.12948  20355215.53148
 106967347.97949       727.00049       386.00048       318.00048
 120110485.37447  93592605.82047  22856264.92048  22856265.74347  22856270.86947
 120110479.87948       311.00048        58.00047        59.00047
 120066612.85846  93558423.20546  22847916.92648  22847916.88746  22847923.06146
 120066612.37148       255.00048        41.00046        39.00046
 118705073.92747  92497478.05546  22588823.96648  22588824.35947  22588828.46746
 118705070.43548       325.00048        72.00047        45.00046
