     2.20           OBSERVATION DATA    GPS                 RINEX VERSION / TYPE
gps1x2rnx           glk                 2004-08-04 18:35:57 PGM / RUN BY / DATE
GRACE A                                                     MARKER NAME
GRACE A             NASA                                    OBSERVER / AGENCY
RECNUM              RECTYPE             RECVERS             REC # / TYPE / VERS
ANTNUM              ANTTYPE                                 ANT # / TYPE
        0.0000        0.0000        0.0000                  APPROX POSITION XYZ
        0.0000        0.0000        0.0000                  ANTENNA: DELTA H/E/N
     1     1     0                                          WAVELENGTH FACT L1/2
     9    L1    L2    C1    P1    P2    LA    SA    S1    S2# / TYPES OF OBSERV
    10                                                      INTERVAL
  2003    09    14    00    00   00.000000      GPS         TIME OF FIRST OBS
SNR is mapped to signal strength [0,1,2-9]                  COMMENT
 SNR: >500 >100  >50  >10   >5   >3  >1  >0  bad  n/a       COMMENT
 sig:    9    8    7    6    5    4   3   2    1    0       COMMENT
 Loss of Lock Indicator is set for all phase observations   COMMENT
 in case a phase break/cycle slip is detected.              COMMENT
 Loss of Lock Indicator is also set at acquisition of a PRN COMMENT
 Undetected cycle slips may remain in this file.            COMMENT
                                                            END OF HEADER
 03 09 14 00 00 00.0000000  0 10 01 04 05 07 11 14 20 24 25 30
 108222103.42248  84328941.43848  20593981.67849  20593981.80648  20593988.89748
 108222102.91449       629.00049       298.00048       230.00048
 119300955.27347  92961809.52647  22702216.76248  22702217.31147  22702223.89747
 119300952.76748       337.00048        76.00047        81.00047
 133468186.70245 104001209.45346  25398151.23948  25398151.49445  25398158.58046
 133468182.18548       105.00048         8.00045        14.00046
 120223143.29846  93680403.35346  22877703.69148  22877703.61746  22877711.51146
 120223143.79348       244.00048        45.00046        44.00046
 120151737.83747  93624753.57546  22864115.17848  22864115.54247  22864121.10846
 120151736.32548       270.00048        54.00047        48.00046
 138370002.89153 107820777.22055  26330931.32247  26330936.06843  26330935.13345
 138369977.93757        58.00047         3.00043         9.00045
 104625791.09148  81526615.93049  19909626.40949  19909626.29148  19909632.47349
 104625792.58949       756.00049       487.00048       681.00049
 139133562.44653 108415843.32555  26476242.74747  26476236.76143  26476256.48145
 139133594.59857        66.00047         3.00043        10.00045
 114139392.07548  88939810.85248  21720004.06248  21720004.48748  21720010.56348
 114139390.57448       429.00048       136.00048       121.00048
 131029760.18546 102101136.59046  24934134.69848  24934135.19646  24934140.79146
 131029759.70348       138.00048        11.00046        19.00046
 03 09 14 00 00 10.0000000  0  8 01 04 05 07 11 20 25 30
 107981062.86548  84141117.62348  20548113.17249  20548113.25748  20548120.37748
 107981062.35949       638.00049       311.00048       245.00048
 119480016.28247  93101337.55447  22736290.95548  22736291.38547  22736297.95447
 119480013.77848       334.00048        76.00047        78.00047
 133875545.25945 104318631.43546  25475669.46647  25475667.56045  25475677.85346
 133875540.73947        99.00047         7.00045        12.00046
 120183020.00446  93649138.43046  22870068.59548  22870068.53746  22870076.56046
 120183020.50548       243.00048        46.00046        48.00046
 119841822.09747  93383260.81846  22805140.12948  22805140.44947  22805146.16846
 119841820.58948       275.00048        53.00047        49.00046
 104615892.38148  81518902.62949  19907742.76149  19907742.67348  19907748.83549
 104615893.87949       757.00049       497.00048       696.00049
 114264449.97248  89037258.52948  21743801.75548  21743802.12148  21743808.29448
 114264448.46948       426.00048       139.00048       123.00048
 131406888.95446 102395003.06346  25005900.08148  25005899.35746  25005906.28446
 131406888.47148       133.00048        13.00046        17.00046
 03 09 14 00 00 20.0000000  0  8 01 04 05 07 11 20 25 30
 107745431.87048  83957509.05048  20503274.11349  20503274.17948  20503281.28648
 107745431.36349       648.00049       319.00048       257.00048
 119661313.36447  93242607.97947  22770790.53248  22770791.25347  22770797.75047
 119661310.85848       332.00048        76.00047        75.00047
 134282949.67945 104636089.10746  25553195.86247  25553196.75245  25553203.23846
 134282945.12647        94.00047         7.00045        12.00046
 120144649.07546  93619238.98546  22862767.13548  22862766.63346  22862774.41246
 120144649.57748       244.00048        46.00046        46.00046
 119533848.31547  93143281.27046  22746534.74648  22746534.92947  22746540.79946
 119533846.80848       279.00048        56.00047        50.00046
 104611772.46448  81515692.28549  19906958.76749  19906958.70748  19906964.87049
 104611773.96149       758.00049       498.00048       697.00049
 114394772.40348  89138808.44048  21768601.36248  21768601.77948  21768607.94848
 114394770.90048       423.00048       135.00048       121.00048
 131785064.30046 102689685.04546  25077864.07848  25077863.82746  25077871.43446
 131785063.82248       129.00048        11.00046        18.00046
 03 09 14 00 00 30.0000000  0  8 01 04 05 07 11 20 25 30
 107515283.85948  83778172.93548  20459478.36149  20459478.44448  20459485.59948
 107515283.35249       657.00049       329.00048       267.00048
 119844823.39447  93385602.77747  22805711.44448  22805712.14847  22805718.41447
 119844820.88948       330.00048        74.00047        75.00047
 134690344.03344 104953539.00145  25630721.03247  25630719.79544  25630727.91045
 134690339.51947        89.00047         5.00044        10.00045
 120108035.47446  93590708.88846  22855799.71348  22855799.23746  22855807.39446
 120108035.97548       245.00048        45.00046        46.00046
 119227861.87247  92904850.28747  22688307.47748  22688307.48547  22688313.20947
 119227860.35948       284.00048        60.00047        51.00047
 104613430.85848  81516984.52149  19907274.37349  19907274.32748  19907280.45649
 104613432.35549       760.00049       496.00048       704.00049
 114530320.32548  89244430.16248  21794395.36348  21794395.66548  21794401.90648
 114530318.82248       419.00048       131.00048       120.00048
 132164228.08945 102985137.18546  25150017.05548  25150017.23245  25150024.22346
 132164227.58348       124.00048        10.00045        16.00046
 03 09 14 00 00 40.0000000  0  8 01 04 05 07 11 20 25 30
 107290691.22948  83603165.69348  20416739.77249  20416739.91048  20416747.07948
 107290690.72249       670.00049       342.00048       281.00048
 120030523.12947  93530303.83647  22841048.92848  22841049.45547  22841056.11847
 120030520.62048       326.00048        72.00047        71.00047
 135097673.13744 105270937.97645  25708232.95647  25708232.69244  25708239.73145
 135097668.60547        84.00047         5.00044        10.00045
 120073184.19246  93563552.02646  22849167.77748  22849167.35646  22849175.42646
 120073184.69148       246.00048        45.00046        47.00046
 118923908.10447  92668003.22446  22630466.81248  22630467.13347  22630472.82846
 118923906.59648       290.00048        61.00047        50.00046
 104620865.35048  81522777.61449  19908689.14849  19908689.03448  19908695.25649
 104620866.84849       760.00049       500.00048       705.00049
 114671053.29948  89354092.18248  21821175.89148  21821176.34548  21821182.56948
 114671051.79348       416.00048       131.00048       117.00048
 132544322.49545 103281314.53246  25222346.38348  25222347.76945  25222355.38546
 132544321.98348       119.00048        10.00045        15.00046
 03 09 14 00 00 50.0000000  0  8 01 04 05 07 11 20 25 30
 107071725.22848  83432542.83048  20375072.00549  20375072.00648  20375079.20848
 107071724.72049       686.00049       359.00048       290.00048
 120218389.10747  93676692.88647  22876798.66348  22876799.42247  22876806.01047
 120218386.60048       323.00048        71.00047        68.00047
 135504882.06944 105588239.09046  25785723.53847  25785722.11444  25785733.17946
 135504877.51147        81.00047         5.00044        11.00046
 120040099.93546  93537772.05346  22842872.10248  22842871.63346  22842879.48946
 120040100.43748       247.00048        46.00046        47.00046
 118622032.46947  92432775.47247  22573021.75148  22573022.05547  22573027.79947
 118622030.95848       296.00048        64.00047        51.00047
 104634072.08648  81533068.55749  19911202.31149  19911202.21148  19911208.42049
 104634073.58349       759.00049       498.00048       702.00049
 114816929.46948  89467761.89948  21848935.27048  21848935.61448  21848941.89448
 114816927.97148       413.00048       129.00048       113.00048
 132925290.11745 103578172.23646  25294842.38648  25294841.64145  25294848.22446
 132925289.60048       114.00048         8.00045        14.00046
 03 09 14 00 01 00.0000000  0  8 01 04 05 07 11 20 25 30
 106858455.86148  83266358.90348  20334488.14149  20334488.28648  20334495.38648
 106858455.35449       704.00049       379.00048       300.00048
 120408397.78147  93824751.56047  22912956.07648  22912956.74947  22912963.12747
 120408395.27348       320.00048        71.00047        69.00047
 135911924.52554 105905419.52755  25863179.40347  25863179.44644  25863185.15145
 135911925.01057        76.00047         4.00044        10.00045
 120008787.30246  93513372.56846  22836913.40948  22836913.06246  22836920.96546
 120008787.80048       248.00048        48.00046        47.00046
 118322280.55147  92199202.56047  22515980.89348  22515981.28647  22515986.87747
 118322279.03648       303.00048        69.00047        53.00047
 104653045.50648  81547853.01949  19914812.84149  19914812.76248  19914818.94849
 104653047.00249       759.00049       496.00048       697.00049
 114967905.72248  89585405.69948  21877665.16648  21877665.46648  21877671.83148
 114967904.22348       408.00048       125.00048       112.00048
 133307073.72045 103875665.79446  25367493.27648  25367494.00045  25367500.40646
 133307073.18848       110.00048         9.00045        15.00046
 03 09 14 00 01 10.0000000  0  2 01 04
 106650951.92048  83104667.51348  20295001.52749  20295001.58648  20295008.72048
 106650951.41249       723.00049       399.00048       308.00048
 120600525.16147  93974461.17347  22949516.78948  22949517.36547  22949523.94847
 120600522.65448       316.00048        68.00047        66.00047
